tripadvisor_entity_id,name,link,rating,reviews_count,price_range,phone,is_open_now,status_text,address,city,postal_code,country,country_code,latitude,longitude,parent_location_id,parent_location_name,featured_image,has_reservation,has_delivery,is_ad
25566042,Bushra,https://www.tripadvisor.com/Restaurant_Review-g294217-d25566042-Reviews-Bushra-Hong_Kong.html,4.9,202,$$ - $$$,+852 6172 3591,True,Open now,"66 Mody Road Shop 6, G/F & Shop 16, UG/F, Tsim Sha Tsui Centre, Hong Kong China",,,China,CN,22.297672,114.17799,294217,Hong Kong,https://dynamic-media-cdn.tripadvisor.com/media/photo-o/2c/19/34/0f/ground-floor.jpg,False,False,True
23871030,Kushiro,https://www.tripadvisor.com/Restaurant_Review-g294217-d23871030-Reviews-Kushiro-Hong_Kong.html,4.9,221,$$$$,+852 2957 8838,False,Closed now,"Salisbury Road Shop BW1, BW3 & BW5, B1/F The Peninsula Hotel, Hong Kong China",,,China,CN,22.295103,114.17156,294217,Hong Kong,https://dynamic-media-cdn.tripadvisor.com/media/photo-o/27/9f/b2/ff/main-sushi-counter.jpg,False,False,True
2540306,One Dim Sum Chinese Restaurant,https://www.tripadvisor.com/Restaurant_Review-g294217-d2540306-Reviews-One_Dim_Sum_Chinese_Restaurant-Hong_Kong.html,4.4,2806,$,+852 2677 7888,True,Open now,"G/F 209A-209B Tung Choi Street Prince Edward, Hong Kong China",,,China,CN,22.325727,114.16917,294217,Hong Kong,https://dynamic-media-cdn.tripadvisor.com/media/photo-o/19/eb/49/ee/photo3jpg.jpg,False,False,
14982719,Cruise Restaurant & Bar,https://www.tripadvisor.com/Restaurant_Review-g294217-d14982719-Reviews-Cruise_Restaurant_Bar-Hong_Kong.html,4.9,2180,$$ - $$$,+852 3896 9898,True,Open now,"1 North Point Estate Lane 23/F, West Tower, Hyatt Centric Victoria Harbour Hong Kong, Hong Kong 000000 China",,000000,China,CN,22.292856,114.1993,294217,Hong Kong,https://dynamic-media-cdn.tripadvisor.com/media/photo-o/1b/ae/70/f6/cruise.jpg,False,False,
21209910,Twist ＆ Buckle,https://www.tripadvisor.com/Restaurant_Review-g294217-d21209910-Reviews-Twist_Buckle-Hong_Kong.html,4.9,430,$,+852 6508 2674,True,Open now,"29-31 Chatham Road South North Point, Hong Kong China",,,China,CN,22.298191,114.175545,294217,Hong Kong,https://dynamic-media-cdn.tripadvisor.com/media/photo-o/1b/cf/1c/a1/glazed-churros.jpg,False,False,
6739503,Ding Dim 1968,https://www.tripadvisor.com/Restaurant_Review-g294217-d6739503-Reviews-Ding_Dim_1968-Hong_Kong.html,4.2,945,$,+852 2326 1968,True,Open now,"59 Wyndham Street G/F, Central, Hong Kong China",,,China,CN,22.281292,114.15491,294217,Hong Kong,https://dynamic-media-cdn.tripadvisor.com/media/photo-o/09/c0/4c/2a/ding-dim-1968.jpg,False,False,
12882001,Mr Wolf,https://www.tripadvisor.com/Restaurant_Review-g294217-d12882001-Reviews-Mr_Wolf-Hong_Kong.html,4.2,195,$$ - $$$,+852 2526 0838,True,Open now,"70 Queens Road, Central 5/F, Crawford House, Hong Kong China",,,China,CN,22.28264,114.15564,294217,Hong Kong,https://dynamic-media-cdn.tripadvisor.com/media/photo-o/2b/73/68/ac/executive-lunch.jpg,False,False,True
24005347,The Hunter,https://www.tripadvisor.com/Restaurant_Review-g294217-d24005347-Reviews-The_Hunter-Hong_Kong.html,4.9,251,$$ - $$$,+852 2330 0204,True,Open now,"29 Tong Yin Street, Tseung Kwan O Alto Residences Shop 11, G/F, Seaside, Hong Kong China",,,China,CN,22.301638,114.25824,294217,Hong Kong,https://dynamic-media-cdn.tripadvisor.com/media/photo-o/2a/f7/ea/bc/the-hunter.jpg,True,False,
3749262,Tim Ho Wan Sham Shui Po,https://www.tripadvisor.com/Restaurant_Review-g294217-d3749262-Reviews-Tim_Ho_Wan_Sham_Shui_Po-Hong_Kong.html,4.2,1392,$,+852 2788 1226,True,Open now,"G/F, 9-11 Fuk Wing Street, Hong Kong China",,,China,CN,22.329348,114.16644,294217,Hong Kong,https://dynamic-media-cdn.tripadvisor.com/media/photo-o/0d/10/c5/67/20160913181550-img-2816.jpg,False,False,
5400408,Din Tai Fung (Silvercord),https://www.tripadvisor.com/Restaurant_Review-g294217-d5400408-Reviews-Din_Tai_Fung_Silvercord-Hong_Kong.html,4.3,1703,$$ - $$$,+852 2730 6928,True,Open now,"3/F, Silvercord, No.30 Canton Road, Tsim Sha Tsui, Kowloon, Hong Kong China",,,China,CN,22.297623,114.16926,294217,Hong Kong,https://dynamic-media-cdn.tripadvisor.com/media/photo-o/13/a7/03/27/quite-large-dining-room.jpg,False,False,
1792423,Man Wah,https://www.tripadvisor.com/Restaurant_Review-g294217-d1792423-Reviews-Man_Wah-Hong_Kong.html,4.7,1224,$$$$,+852 2825 4003,False,Closed now,"25/f, Mandarin Oriental Hong Kong 5 Connaught Road Central, Hong Kong 000000 China",,000000,China,CN,22.28134,114.16027,294217,Hong Kong,https://dynamic-media-cdn.tripadvisor.com/media/photo-o/1c/a8/58/84/man-wah-at-mandarin-oriental.jpg,True,False,
2634267,Yat Tung Heen (Eaton HK),https://www.tripadvisor.com/Restaurant_Review-g294217-d2634267-Reviews-Yat_Tung_Heen_Eaton_HK-Hong_Kong.html,4.5,367,$$ - $$$,+852 2710 1093,False,Closed now,"B2, Eaton, Hong Kong, 380 Nathan Road, Kowloon Entrance Pak Hoi Street, Jordan, Kowloon, Hong Kong 0000 China",,0000,China,CN,22.308277,114.171646,294217,Hong Kong,https://dynamic-media-cdn.tripadvisor.com/media/photo-o/15/db/c7/1e/interior-of-yat-tung.jpg,True,False,
6758068,Ho Lee Fook,https://www.tripadvisor.com/Restaurant_Review-g294217-d6758068-Reviews-Ho_Lee_Fook-Hong_Kong.html,4.4,1139,$$ - $$$,+852 2810 0860,False,Closed now,"G/F, No.1-5 Elgin Street, SoHo Hong Kong, Hong Kong China",,,China,CN,22.283,114.15266,294217,Hong Kong,https://dynamic-media-cdn.tripadvisor.com/media/photo-o/21/a4/4f/c4/exterior.jpg,True,False,
15556190,Pica Pica,https://www.tripadvisor.com/Restaurant_Review-g294217-d15556190-Reviews-Pica_Pica-Hong_Kong.html,4.8,698,$$ - $$$,+852 2811 9880,True,Open now,"317-321 Des Voeux Rd Central, Sheung Wan Shop G-H, G/F, Kai Tak Commercial Building, Hong Kong China",,,China,CN,22.287176,114.15064,294217,Hong Kong,https://dynamic-media-cdn.tripadvisor.com/media/photo-o/24/79/62/55/front-door.jpg,False,False,
799832,Kam Wah Cafe,https://www.tripadvisor.com/Restaurant_Review-g294217-d799832-Reviews-Kam_Wah_Cafe-Hong_Kong.html,4.0,946,$,+852 2392 6830,True,Open now,"47 Bute Street, Mongkok, Hong Kong China",,,China,CN,22.322191,114.16974,294217,Hong Kong,https://dynamic-media-cdn.tripadvisor.com/media/photo-o/0a/70/14/5f/photo8jpg.jpg,False,False,
11425536,SKYE,https://www.tripadvisor.com/Restaurant_Review-g294217-d11425536-Reviews-SKYE-Hong_Kong.html,4.5,340,$$$$,+852 2839 3327,True,Open now,"310 Gloucester Road 27/f, The Park Lane Hong Kong, Causeway Bay, Hong Kong 00000 China",,00000,China,CN,22.281176,114.18643,294217,Hong Kong,https://dynamic-media-cdn.tripadvisor.com/media/photo-o/2c/8a/bd/d5/skye-roofbar-dining-outdoor.jpg,True,False,
27490497,BKK Thai Street Food,https://www.tripadvisor.com/Restaurant_Review-g294217-d27490497-Reviews-BKK_Thai_Street_Food-Hong_Kong.html,4.9,421,$$ - $$$,+852 2330 0306,True,Open now,"No.35 Aberdeen Street Shop SG09-SG14, Block A Staunton PMQ, Hong Kong China",,,China,CN,22.283333,114.151566,294217,Hong Kong,https://dynamic-media-cdn.tripadvisor.com/media/photo-o/2c/13/0c/b3/bkk-thai-street-food.jpg,True,False,
23035094,Tagline,https://www.tripadvisor.com/Restaurant_Review-g294217-d23035094-Reviews-Tagline-Hong_Kong.html,4.7,114,$$ - $$$,+852 2329 3311,True,Open now,"68 Mody Road, Empire Centre, Shop G18 Tsim Sha Tsui East, Kowloon, Hong Kong 00000 China",,00000,China,CN,22.298191,114.178734,294217,Hong Kong,https://dynamic-media-cdn.tripadvisor.com/media/photo-o/2e/bd/73/0a/main-entrance.jpg,False,False,True
6894266,Kam's Roast Goose,https://www.tripadvisor.com/Restaurant_Review-g294217-d6894266-Reviews-Kam_s_Roast_Goose-Hong_Kong.html,4.1,1077,$$ - $$$,+852 2520 1110,True,Open now,"No.226 Hennessy Road, Wan Chai G/F, Po Wah Commercial Centre, Hong Kong China",,,China,CN,22.277645,114.17531,294217,Hong Kong,https://dynamic-media-cdn.tripadvisor.com/media/photo-o/29/71/06/77/caption.jpg,False,False,
927163,Lai Ching Heen - Regent Hong Kong,https://www.tripadvisor.com/Restaurant_Review-g294217-d927163-Reviews-Lai_Ching_Heen_Regent_Hong_Kong-Hong_Kong.html,4.7,1170,$$$$,+852 2313 2313,False,Closed now,"18 Salisbury Road, Tsim Sha Tsui, Hong Kong 00000 China",,00000,China,CN,22.293428,114.17461,294217,Hong Kong,https://dynamic-media-cdn.tripadvisor.com/media/photo-o/25/d9/f2/69/steamed-lobeter-and-egg.jpg,True,False,
2399904,Tin Lung Heen,https://www.tripadvisor.com/Restaurant_Review-g294217-d2399904-Reviews-Tin_Lung_Heen-Hong_Kong.html,4.7,1820,$$$$,+852 2263 2270,False,Closed now,"1 Austin Road West 102/F, The Ritz-Carlton, International Commerce Centre, Hong Kong China",,,China,CN,22.303358,114.16019,294217,Hong Kong,https://dynamic-media-cdn.tripadvisor.com/media/photo-o/1a/9a/bf/a8/photo0jpg.jpg,True,False,
1094369,Tsim Chai Kee Noodle Shop,https://www.tripadvisor.com/Restaurant_Review-g294217-d1094369-Reviews-Tsim_Chai_Kee_Noodle_Shop-Hong_Kong.html,4.1,794,$,+852 2850 6471,True,Open now,"98 Wellington Street Central-Mid-Levels Escalators, Hong Kong China",,,China,CN,22.283087,114.154396,294217,Hong Kong,https://dynamic-media-cdn.tripadvisor.com/media/photo-o/22/ab/a5/85/caption.jpg,False,False,
1745792,"Tim Ho Wan, the Dim-Sum Specialists",https://www.tripadvisor.com/Restaurant_Review-g294217-d1745792-Reviews-Tim_Ho_Wan_the_Dim_Sum_Specialists-Hong_Kong.html,4.1,3260,$,+852 2332 2896,True,Open now,"Shop 72, G/F, Olympian City 2, 18 Hoi Ting Road, Tai Kok Tsui Olympian City Mall, Hong Kong China",,,China,CN,22.316763,114.16153,294217,Hong Kong,https://dynamic-media-cdn.tripadvisor.com/media/photo-o/0e/7c/12/74/timmy.jpg,False,False,
3309467,Dim Dim Sum Specialty Store (Mong Kok),https://www.tripadvisor.com/Restaurant_Review-g294217-d3309467-Reviews-Dim_Dim_Sum_Specialty_Store_Mong_Kok-Hong_Kong.html,4.1,808,$,+852 2309 2300,True,Open now,"106 Tung Choi Street Mong Kok, Hong Kong 000000 China",,000000,China,CN,22.320004,114.17046,294217,Hong Kong,https://dynamic-media-cdn.tripadvisor.com/media/photo-o/26/6e/e1/54/caption.jpg,False,False,
26810870,Carna by Dario Cecchini,https://www.tripadvisor.com/Restaurant_Review-g294217-d26810870-Reviews-Carna_by_Dario_Cecchini-Hong_Kong.html,4.9,254,$$$$,+852 4607-0737,False,Closed now,"Level 74, Sls Dubai Hotel & Residences Marasi Drive, Hong Kong China",,,China,CN,22.29771,114.1748,294217,Hong Kong,https://dynamic-media-cdn.tripadvisor.com/media/photo-o/2b/61/d2/99/carna-main-dining-room.jpg,False,False,
2198231,Ozone,https://www.tripadvisor.com/Restaurant_Review-g294217-d2198231-Reviews-Ozone-Hong_Kong.html,4.4,4526,$$$$,+852 2263 2270,True,Open now,"No.1, Austin Road West Level 118, International Commerce Centre, Hong Kong China",,,China,CN,22.303398,114.16019,294217,Hong Kong,https://dynamic-media-cdn.tripadvisor.com/media/photo-o/12/6f/d6/e7/panoramic-views-ozone.jpg,True,False,
2719190,Sang Kee Congee Shop,https://www.tripadvisor.com/Restaurant_Review-g294217-d2719190-Reviews-Sang_Kee_Congee_Shop-Hong_Kong.html,4.3,545,$,+852 2541 1099,True,Open now,"Ground Floor, 7 - 9 Butt Street, Sheung Wan, Hong Kong China",,,China,CN,22.285355,114.15159,294217,Hong Kong,https://dynamic-media-cdn.tripadvisor.com/media/photo-o/0f/2e/be/2d/congee-with-sliced-beef.jpg,False,False,
798091,City Hall Maxim's Palace,https://www.tripadvisor.com/Restaurant_Review-g294217-d798091-Reviews-City_Hall_Maxim_s_Palace-Hong_Kong.html,4.1,1338,$$ - $$$,+852 2521 1303,False,Closed now,"2/F, Low Block, City Hall, Central, Hong Kong China",,,China,CN,22.282743,114.16166,294217,Hong Kong,https://dynamic-media-cdn.tripadvisor.com/media/photo-o/18/44/a2/00/maxim-s-palace-chinese.jpg,False,False,
10311425,Maison ES,https://www.tripadvisor.com/Restaurant_Review-g294217-d10311425-Reviews-Maison_ES-Hong_Kong.html,4.6,153,$$$$,+852 2521 8011,False,Closed now,"Shop B, UG/F, Hang Tak Building, 1 Electric Street, Wan Chai (Star Street Precinct), Hong Kong China",,,China,CN,22.2759,114.168205,294217,Hong Kong,https://dynamic-media-cdn.tripadvisor.com/media/photo-o/1c/7e/67/15/dining.jpg,False,False,
8353573,Scarlett Café & Wine Bar,https://www.tripadvisor.com/Restaurant_Review-g294217-d8353573-Reviews-Scarlett_Cafe_Wine_Bar-Hong_Kong.html,4.8,2103,$$ - $$$,+852 3565 6513,True,Open now,"G/F, 2 Austin Avenue, Tsim Sha Tsui, Kowloon, Hong Kong China",,,China,CN,22.30215,114.17644,294217,Hong Kong,https://dynamic-media-cdn.tripadvisor.com/media/photo-o/1d/85/64/cc/scarlett-cafe-wine-bar.jpg,False,False,
2437900,DimDimSum Dim Sum Specialty Store (Jordan),https://www.tripadvisor.com/Restaurant_Review-g294217-d2437900-Reviews-DimDimSum_Dim_Sum_Specialty_Store_Jordan-Hong_Kong.html,4.2,669,$,+852 2771 7766,True,Open now,"26-28 Man Wui St, Jordan, Kowloon Austin Station Exit A, Hong Kong China",,,China,CN,22.307034,114.16598,294217,Hong Kong,https://dynamic-media-cdn.tripadvisor.com/media/photo-o/1a/15/64/91/img-20191120-194705-largejpg.jpg,False,False,
15023452,Siam Noodles,https://www.tripadvisor.com/Restaurant_Review-g294217-d15023452-Reviews-Siam_Noodles-Hong_Kong.html,4.6,179,$,+852 2350 4808,True,,"7 Lock Road, Tsim Sha Tsui Shop A, G/F, Kar Lock Building, Hong Kong China",,,China,CN,22.296814,114.171684,294217,Hong Kong,https://dynamic-media-cdn.tripadvisor.com/media/photo-o/26/e9/87/57/caption.jpg,False,False,
1367659,Hutong,https://www.tripadvisor.com/Restaurant_Review-g294217-d1367659-Reviews-Hutong-Hong_Kong.html,4.2,1973,$$$$,+852 3428 8342,False,Closed now,"15 Middle Road, Tsim Sha Tsui 18/F, H Zentre, Hong Kong China",,,China,CN,22.295506,114.17344,294217,Hong Kong,https://dynamic-media-cdn.tripadvisor.com/media/photo-o/21/73/eb/e3/hutong-welcomes-you-to.jpg,True,False,
800834,Mak Man Kee Noodle Shop,https://www.tripadvisor.com/Restaurant_Review-g294217-d800834-Reviews-Mak_Man_Kee_Noodle_Shop-Hong_Kong.html,4.1,664,$,+852 2736 5561,True,Open now,"51 Parkes Street, Yaumatei, Hong Kong China",,,China,CN,22.304707,114.17068,294217,Hong Kong,https://dynamic-media-cdn.tripadvisor.com/media/photo-o/2a/bb/d5/d3/caption.jpg,False,False,
23243897,Teppanyaki Mihara Goten,https://www.tripadvisor.com/Restaurant_Review-g294217-d23243897-Reviews-Teppanyaki_Mihara_Goten-Hong_Kong.html,4.9,101,$$$$,+852 5394 3689,False,Closed now,"1 Hoi Ping Road 3/f, Cubus, Hong Kong 0000 China",,0000,China,CN,22.277596,114.185005,294217,Hong Kong,https://dynamic-media-cdn.tripadvisor.com/media/photo-o/2e/d1/94/fb/a5-kumamoto-wagyu-fillet.jpg,False,False,
25224259,Harbourside - Regent Hong Kong,https://www.tripadvisor.com/Restaurant_Review-g294217-d25224259-Reviews-Harbourside_Regent_Hong_Kong-Hong_Kong.html,4.9,238,$$$$,+852 2313 2313,True,Open now,"18 Salisbury Road, Kowloon Regent Hong Kong, Hong Kong China",,,China,CN,22.293379,114.17395,294217,Hong Kong,https://dynamic-media-cdn.tripadvisor.com/media/photo-o/28/19/a3/ab/harbourside-regent-hong.jpg,True,False,
7808139,BRAZA Churrascaria Brazilian Steakhouse,https://www.tripadvisor.com/Restaurant_Review-g294217-d7808139-Reviews-BRAZA_Churrascaria_Brazilian_Steakhouse-Hong_Kong.html,4.7,1575,$$ - $$$,+852 2890 9268,False,Closed now,"3/F, Grand Progress Building, No.15-16 Lan Kwai Fong, Central, Hong Kong China",,,China,CN,22.280527,114.15531,294217,Hong Kong,https://dynamic-media-cdn.tripadvisor.com/media/photo-o/07/77/37/2b/getlstd-property-photo.jpg,False,False,
2706744,Din Tai Fung (Yee Wo Branch),https://www.tripadvisor.com/Restaurant_Review-g294217-d2706744-Reviews-Din_Tai_Fung_Yee_Wo_Branch-Hong_Kong.html,4.4,2135,$$ - $$$,+852 3160 8998,True,Open now,"No.68 Yee Wo Street, Causeway Bay, Hong Kong China",,,China,CN,22.27927,114.18623,294217,Hong Kong,https://dynamic-media-cdn.tripadvisor.com/media/photo-o/15/5e/75/75/dining-room.jpg,False,False,
25163524,Bubbly Feast HK Style Hot Pot,https://www.tripadvisor.com/Restaurant_Review-g294217-d25163524-Reviews-Bubbly_Feast_HK_Style_Hot_Pot-Hong_Kong.html,4.8,366,$$ - $$$,+852 6890 6890,True,Opens in 54 min,"No 428 Shanghai Street, Mong Kok G/f, Hong Kong China",,,China,CN,22.314896,114.16912,294217,Hong Kong,https://dynamic-media-cdn.tripadvisor.com/media/photo-o/27/79/21/32/2-4.jpg,False,False,
23826886,Chutney Tandoor House,https://www.tripadvisor.com/Restaurant_Review-g294217-d23826886-Reviews-Chutney_Tandoor_House-Hong_Kong.html,4.9,397,$$ - $$$,+852 2330 0027,False,Closed now,"77 Wyndham St 4/F, Carfield Commercial Building, Central, Hong Kong China",,,China,CN,22.281845,114.15476,294217,Hong Kong,https://dynamic-media-cdn.tripadvisor.com/media/photo-o/2a/f7/eb/c7/chutney.jpg,True,False,
2461243,The Chairman,https://www.tripadvisor.com/Restaurant_Review-g294217-d2461243-Reviews-The_Chairman-Hong_Kong.html,4.4,458,$$$$,+852 2555 2202,False,Closed now,"No.18 Kau U Fong, Central, Hong Kong China",,,China,CN,22.284601,114.1527,294217,Hong Kong,https://dynamic-media-cdn.tripadvisor.com/media/photo-o/0e/8d/ee/ba/the-chairman.jpg,False,False,
779644,Aqua,https://www.tripadvisor.com/Restaurant_Review-g294217-d779644-Reviews-Aqua-Hong_Kong.html,4.3,3193,$$$$,+852 3427 2288,False,Closed now,"15 Middle Road, Tsim Sha Tsui 17/F, H Zentre, Hong Kong China",,,China,CN,22.295496,114.173386,294217,Hong Kong,https://dynamic-media-cdn.tripadvisor.com/media/photo-o/21/73/f3/ae/welcome-to-our-stylish.jpg,True,False,
795044,Kau Kee Restaurant,https://www.tripadvisor.com/Restaurant_Review-g294217-d795044-Reviews-Kau_Kee_Restaurant-Hong_Kong.html,3.9,937,$,+852 2815 0123,True,Open now,"G/F., 21 Gough Street, Mid-Level, Central, Hong Kong China",,,China,CN,22.28427,114.15248,294217,Hong Kong,https://dynamic-media-cdn.tripadvisor.com/media/photo-o/0e/9f/05/00/photo3jpg.jpg,False,False,
25042349,Bàrbar,https://www.tripadvisor.com/Restaurant_Review-g294217-d25042349-Reviews-Barbar-Hong_Kong.html,4.9,533,$$ - $$$,+852 2810 0008,False,Closed now,"G/f, 9 Ship Street, Wan Chai, Hong Kong, Hong Kong China",,,China,CN,22.276209,114.17082,294217,Hong Kong,https://dynamic-media-cdn.tripadvisor.com/media/photo-o/26/6a/88/ff/tapas-selection.jpg,False,False,
24996295,Sushi Hisayoshi,https://www.tripadvisor.com/Restaurant_Review-g294217-d24996295-Reviews-Sushi_Hisayoshi-Hong_Kong.html,4.9,400,$$ - $$$,+852 2383 3366,False,Closed now,"3-27 Canton Road, Tsim Sha Tsui Shop G111, G/F, The Gateway, Harbour City, Hong Kong China",,,China,CN,22.296064,114.168655,294217,Hong Kong,https://dynamic-media-cdn.tripadvisor.com/media/photo-o/27/83/b9/69/prime-seasonal-ingredients.jpg,True,False,
26532632,El Taquero,https://www.tripadvisor.com/Restaurant_Review-g294217-d26532632-Reviews-El_Taquero-Hong_Kong.html,4.9,334,$$ - $$$,+852 2811 1998,True,Opens in 54 min,"Shops B-F, G/F, Yan King Court, 119 Queen's Road East, Wan Chai, Hong Kong 000000 China",,000000,China,CN,22.275614,114.17063,294217,Hong Kong,https://dynamic-media-cdn.tripadvisor.com/media/photo-o/2a/26/c3/42/el-taquero.jpg,False,False,
919498,Mak's Noodle (Mak Un Kee),https://www.tripadvisor.com/Restaurant_Review-g294217-d919498-Reviews-Mak_s_Noodle_Mak_Un_Kee-Hong_Kong.html,4.0,976,$,+852 2854 3810,True,Open now,"77 Wellington St., Central, Hong Kong China",,,China,CN,22.2831,114.1546,294217,Hong Kong,https://dynamic-media-cdn.tripadvisor.com/media/photo-o/2d/f0/da/af/caption.jpg,False,False,
19042160,Tasty Hotpot Palace,https://www.tripadvisor.com/Restaurant_Review-g294217-d19042160-Reviews-Tasty_Hotpot_Palace-Hong_Kong.html,4.8,206,$$ - $$$,+852 2338 1515,True,Open now,"16 Carnarvon Road, Tsim Sha Tsui 1/F, Golden Glory Mansion, Hong Kong China",,,China,CN,22.298912,114.1735,294217,Hong Kong,https://dynamic-media-cdn.tripadvisor.com/media/photo-o/1d/8d/f2/0f/caption.jpg,False,False,
26778313,Wakaran,https://www.tripadvisor.com/Restaurant_Review-g294217-d26778313-Reviews-Wakaran-Hong_Kong.html,4.9,308,$$ - $$$,+852 5321 3115,False,Closed now,"9 Ship Street, Wan Chai Shop B, G/f, Pinnacle Building, Hong Kong 000000 China",,000000,China,CN,22.276209,114.17083,294217,Hong Kong,https://dynamic-media-cdn.tripadvisor.com/media/photo-o/2e/ec/44/ab/a-la-carte-features.jpg,False,False,
23317047,Salisterra,https://www.tripadvisor.com/Restaurant_Review-g294217-d23317047-Reviews-Salisterra-Hong_Kong.html,4.7,207,$$$$,+852 3968 1106,True,Open now,"Pacific Place, 88 Queensway Level 49, The Upper House, Hong Kong China",,,China,CN,22.277674,114.16631,294217,Hong Kong,https://dynamic-media-cdn.tripadvisor.com/media/photo-o/1c/de/97/85/salisterra-main-dining.jpg,False,False,
12350157,Café Circles,https://www.tripadvisor.com/Restaurant_Review-g294217-d12350157-Reviews-Cafe_Circles-Hong_Kong.html,4.8,275,$$ - $$$,+852 2280 2868,True,Open now,"8 Yeung Uk Road, Tsuen Wan 9/F, Nina Hotel Tsuen Wan West, Hong Kong China",,,China,CN,22.368633,114.1133,294217,Hong Kong,https://dynamic-media-cdn.tripadvisor.com/media/photo-o/1a/ae/4c/72/seafood-on-ice-for-dinner.jpg,False,False,
25222671,The Steak House - Regent Hong Kong,https://www.tripadvisor.com/Restaurant_Review-g294217-d25222671-Reviews-The_Steak_House_Regent_Hong_Kong-Hong_Kong.html,4.9,247,$$$$,+852 2313 2313,False,Closed now,"18 Salisbury Road, Kowloon Regent Hong Kong, Hong Kong China",,,China,CN,22.293245,114.173965,294217,Hong Kong,https://dynamic-media-cdn.tripadvisor.com/media/photo-o/28/10/b4/03/the-steak-house-regent.jpg,True,False,
1892540,Wooloomooloo Steakhouse (Wan Chai),https://www.tripadvisor.com/Restaurant_Review-g294217-d1892540-Reviews-Wooloomooloo_Steakhouse_Wan_Chai-Hong_Kong.html,4.2,1134,$$$$,+852 2893 6960,True,Open now,"31/F & Rooftop The Hennessy, 256 Hennessy Road, Wan Chai, Hong Kong China",,,China,CN,22.277729,114.176155,294217,Hong Kong,https://dynamic-media-cdn.tripadvisor.com/media/photo-s/02/b9/e2/38/wooloomooloo-steakhouse.jpg,False,False,
13985000,The Astor,https://www.tripadvisor.com/Restaurant_Review-g294217-d13985000-Reviews-The_Astor-Hong_Kong.html,4.8,193,$$ - $$$,+852 2710 1901,True,Open now,"B1/F, Eaton HK, 380 Nathan Road, Jordan, Hong Kong 0000 China",,0000,China,CN,22.308012,114.17181,294217,Hong Kong,https://dynamic-media-cdn.tripadvisor.com/media/photo-o/19/bf/5e/dc/interior.jpg,True,False,
2534180,Dim Sum Square,https://www.tripadvisor.com/Restaurant_Review-g294217-d2534180-Reviews-Dim_Sum_Square-Hong_Kong.html,4.2,966,$,+852 2851 8088,True,Open now,"88 Jervois Street, Sheung wan, Hong Kong China",,,China,CN,22.285175,114.15117,294217,Hong Kong,https://dynamic-media-cdn.tripadvisor.com/media/photo-o/1b/7d/3d/67/photo0jpg.jpg,False,False,
2390123,Above and Beyond,https://www.tripadvisor.com/Restaurant_Review-g294217-d2390123-Reviews-Above_and_Beyond-Hong_Kong.html,4.4,1005,$$$$,+852 3400 1318,True,Open now,"17 Science Museum Road Level 28, Hotel ICON, Tsim Sha Tsui East, Hong Kong China",,,China,CN,22.300728,114.179855,294217,Hong Kong,https://dynamic-media-cdn.tripadvisor.com/media/photo-o/10/5c/a4/4f/above-beyond-private.jpg,False,False,
8672539,Cafe 2 Oyster N Grill,https://www.tripadvisor.com/Restaurant_Review-g294217-d8672539-Reviews-Cafe_2_Oyster_N_Grill-Hong_Kong.html,4.9,229,$$ - $$$,+852 2295 6668,True,Open now,"371-379 Queen's Rd W Sai Ying Pun, Rockson Mansion, Hong Kong China",,,China,CN,22.286749,114.13929,294217,Hong Kong,https://dynamic-media-cdn.tripadvisor.com/media/photo-o/12/e8/5b/38/seasonal-oyster-platter.jpg,False,False,
797531,Dynasty,https://www.tripadvisor.com/Restaurant_Review-g294217-d797531-Reviews-Dynasty-Hong_Kong.html,4.6,439,$$$$,+852 2802 8888,False,Closed now,"1 Harbour Drive Wan Chai, Hong Kong China",,,China,CN,22.281054,114.172905,294217,Hong Kong,https://dynamic-media-cdn.tripadvisor.com/media/photo-o/1c/1b/ac/b0/the-dynasty-restaurant.jpg,True,False,
2514791,The Market,https://www.tripadvisor.com/Restaurant_Review-g294217-d2514791-Reviews-The_Market-Hong_Kong.html,4.5,1026,$$ - $$$,+852 3400 1308,False,Closed now,"Level 2, Hotel ICON, 17 Science Museum Road Tsim Sha Tsui East, Kowloon, Hong Kong China",,,China,CN,22.300652,114.17977,294217,Hong Kong,https://dynamic-media-cdn.tripadvisor.com/media/photo-o/10/16/23/07/the-market-buffet-section.jpg,False,False,
8544723,RÚ,https://www.tripadvisor.com/Restaurant_Review-g294217-d8544723-Reviews-RU-Hong_Kong.html,4.8,278,$$ - $$$,+852 2280 2923,False,Closed now,"8 Yeung Uk Road, Tsuen Wan 7/F, Nina Hotel Tsuen Wan West, Hong Kong China",,,China,CN,22.368443,114.1132,294217,Hong Kong,https://dynamic-media-cdn.tripadvisor.com/media/photo-o/27/a0/72/28/ru.jpg,False,False,
19273696,8Five2 Restobar,https://www.tripadvisor.com/Restaurant_Review-g294217-d19273696-Reviews-8Five2_Restobar-Hong_Kong.html,4.7,411,$$ - $$$,+852 2618 8854,True,Open now,"Shop 2, Ground Floor, 8 Observatory Road, Tsim Sha Tsui, Kowloon, Hong Kong China",,,China,CN,22.30097,114.17557,294217,Hong Kong,https://dynamic-media-cdn.tripadvisor.com/media/photo-o/19/eb/ad/4b/trendy-interior.jpg,False,False,
17761357,Dim Sum Here,https://www.tripadvisor.com/Restaurant_Review-g294217-d17761357-Reviews-Dim_Sum_Here-Hong_Kong.html,4.4,79,$,+852 5423 7079,True,Open now,"286-298 Temple Street, Yau Ma Tei Shop 6-8, G/F, Wah Chi Mansion, Hong Kong China",,,China,CN,22.303715,114.169685,294217,Hong Kong,https://dynamic-media-cdn.tripadvisor.com/media/photo-o/18/d5/a9/19/img-20190818-wa0032-largejpg.jpg,False,False,
23485123,Mu Taiwan Noodles,https://www.tripadvisor.com/Restaurant_Review-g294217-d23485123-Reviews-Mu_Taiwan_Noodles-Hong_Kong.html,4.9,91,$$ - $$$,+852 9862 2272,True,,"60-102 Soy Street Shop 3-4, G/F, The Concord Building, Mong Kok, Hong Kong China",,,China,CN,22.31691,114.172615,294217,Hong Kong,https://dynamic-media-cdn.tripadvisor.com/media/photo-o/1d/3d/96/88/caption.jpg,False,False,
1320739,Jo Jo Indian Cuisine (lockhart Road),https://www.tripadvisor.com/Restaurant_Review-g294217-d1320739-Reviews-Jo_Jo_Indian_Cuisine_lockhart_Road-Hong_Kong.html,4.6,708,$$ - $$$,+852 2527 3776,False,Closed now,"2/f David House, No.37-39 Lockhart Road, Hong Kong China",,,China,CN,22.278282,114.170425,294217,Hong Kong,https://dynamic-media-cdn.tripadvisor.com/media/photo-o/1c/39/ec/9a/received-1887575258048610.jpg,False,False,
21130938,A Smoking Affair,https://www.tripadvisor.com/Restaurant_Review-g294217-d21130938-Reviews-A_Smoking_Affair-Hong_Kong.html,4.8,155,$$ - $$$,+852 2543 8222,False,Closed now,"1 Tang Lung Street 27/f, Midtown Soundwill Plaza Ii, Causeway Bay, Hong Kong 0000 China",,0000,China,CN,22.27894,114.18241,294217,Hong Kong,https://dynamic-media-cdn.tripadvisor.com/media/photo-o/2e/d1/9a/e0/hotpot-group-shot.jpg,False,False,
11997033,Dim Sum Library,https://www.tripadvisor.com/Restaurant_Review-g294217-d11997033-Reviews-Dim_Sum_Library-Hong_Kong.html,4.1,391,$$ - $$$,+852 3643 0088,True,Open now,"88 Queensway Shop 124, 1/F, Pacific Place, Admiralty, Hong Kong China",,,China,CN,22.27751,114.16634,294217,Hong Kong,https://dynamic-media-cdn.tripadvisor.com/media/photo-o/0e/21/64/a7/dim-sum-library.jpg,True,False,
33028056,Le Petit Chef's Dining Room (grand Hyatt Hong Kong),https://www.tripadvisor.com/Restaurant_Review-g294217-d33028056-Reviews-Le_Petit_Chef_s_Dining_Room_grand_Hyatt_Hong_Kong-Hong_Kong.html,4.9,409,$$$$,+852 6119 1632,False,Closed now,"Upper Level, Grand Hyatt Steakhouse, Grand Hyatt Hong Kong, 1 Harbour Road, Hong Kong 00000 China",,00000,China,CN,22.281273,114.17205,294217,Hong Kong,https://dynamic-media-cdn.tripadvisor.com/media/photo-o/2f/6d/5a/49/le-petit-chef-dining.jpg,False,False,
24810099,Maison Du Mezze,https://www.tripadvisor.com/Restaurant_Review-g294217-d24810099-Reviews-Maison_Du_Mezze-Hong_Kong.html,4.9,155,$$ - $$$,+852 2330 0131,True,Open now,"9 Yi Tung Road, Tung Chung G/F, Shop G10, Sheraton Hong Kong Tung Chung Hotel, Hong Kong China",,,China,CN,22.29588,113.94641,294217,Hong Kong,https://dynamic-media-cdn.tripadvisor.com/media/photo-o/2a/f7/e9/64/maison-du-mezze.jpg,True,False,
25008510,Jiangsu Club,https://www.tripadvisor.com/Restaurant_Review-g294217-d25008510-Reviews-Jiangsu_Club-Hong_Kong.html,4.9,61,$$ - $$$,+852 6230 8973,False,Closed now,"130-136 Connaught Road Central 2/F, Alliance Building, Sheung Wan, Hong Kong China",,,China,CN,22.28704,114.15198,294217,Hong Kong,https://dynamic-media-cdn.tripadvisor.com/media/photo-o/2e/d1/92/8b/xiao-long-bao.jpg,False,False,
10350951,YUM CHA (Central),https://www.tripadvisor.com/Restaurant_Review-g294217-d10350951-Reviews-YUM_CHA_Central-Hong_Kong.html,4.0,403,$$ - $$$,+852 3708 8081,False,Closed now,"Shop 1-2, 2/F, Nan Fung Place, 173 Des Voeux Road Central, Central Direction: Sheung Wan MTR Exit E1, Hong Kong na China",,na,China,CN,22.285765,114.154106,294217,Hong Kong,https://dynamic-media-cdn.tripadvisor.com/media/photo-o/0d/60/ce/ac/spacious-floor-area.jpg,False,False,
1799916,Kitchen (W Hotel Hong Kong),https://www.tripadvisor.com/Restaurant_Review-g294217-d1799916-Reviews-Kitchen_W_Hotel_Hong_Kong-Hong_Kong.html,4.4,835,$$ - $$$,+852 3717 2299,False,Closed now,"1 Austin Road West,Kowloon 6/F, W Hong Kong, Hong Kong 0000 China",,0000,China,CN,22.304792,114.16025,294217,Hong Kong,https://dynamic-media-cdn.tripadvisor.com/media/photo-o/03/80/6e/c7/kitchen-at-the-w-hotel.jpg,True,False,
6579151,Mott 32,https://www.tripadvisor.com/Restaurant_Review-g294217-d6579151-Reviews-Mott_32-Hong_Kong.html,4.3,1364,$$$$,+852 2885 8688,False,Closed now,"Basement, Standard Chartered Bank Building, No.4-4A Des Voeux Road Central, Central, Hong Kong China",,,China,CN,22.280712,114.1593,294217,Hong Kong,https://dynamic-media-cdn.tripadvisor.com/media/photo-o/31/bd/19/58/mott-32-hong-kong-is.jpg,True,False,
5772314,Man Mo Dim Sum,https://www.tripadvisor.com/Restaurant_Review-g294217-d5772314-Reviews-Man_Mo_Dim_Sum-Hong_Kong.html,4.3,284,$$ - $$$,+852 5343 5743,True,Open now,"233 Hollywood Road Sheung Wan, Hong Kong China",,,China,CN,22.285545,114.14816,294217,Hong Kong,https://dynamic-media-cdn.tripadvisor.com/media/photo-o/28/d6/a8/8f/man-mo-dim-sum.jpg,False,False,
26731967,Juno,https://www.tripadvisor.com/Restaurant_Review-g294217-d26731967-Reviews-Juno-Hong_Kong.html,4.8,142,$$$$,+852 5183 0188,True,Open now,"88, Wing Lok Street, Sheung Wan, Hong Kong 999077 China",,999077,China,CN,22.286398,114.15117,294217,Hong Kong,https://dynamic-media-cdn.tripadvisor.com/media/photo-o/2a/c7/11/83/iberico-ham-aged-for.jpg,False,False,
2017661,Luk On Kui,https://www.tripadvisor.com/Restaurant_Review-g294217-d2017661-Reviews-Luk_On_Kui-Hong_Kong.html,4.0,687,$$ - $$$,+852 2156 9328,True,Open now,"2-3/F, No.46-50 Des Voeux Road West, Sheung Wan, Hong Kong China",,,China,CN,22.28767,114.147095,294217,Hong Kong,https://dynamic-media-cdn.tripadvisor.com/media/photo-o/0f/73/b8/4e/lin-heung-kui-restaurant.jpg,False,False,
778474,Café Causette,https://www.tripadvisor.com/Restaurant_Review-g294217-d778474-Reviews-Cafe_Causette-Hong_Kong.html,4.4,656,$$ - $$$,+852 2825 4005,True,Open now,"M/f, Mandarin Oriental Hong Kong 5 Connaught Road Central, Hong Kong 000000 China",,000000,China,CN,22.282003,114.15936,294217,Hong Kong,https://dynamic-media-cdn.tripadvisor.com/media/photo-o/2e/47/df/da/cafe-causette.jpg,True,False,
1546043,Luk Yu Tea House,https://www.tripadvisor.com/Restaurant_Review-g294217-d1546043-Reviews-Luk_Yu_Tea_House-Hong_Kong.html,3.5,738,$$ - $$$,+852 2523 5464,True,Open now,"No.24-26 Stanley Street, Central, Hong Kong China",,,China,CN,22.282282,114.155495,294217,Hong Kong,https://dynamic-media-cdn.tripadvisor.com/media/photo-o/17/a8/ed/d3/20190503-111219-largejpg.jpg,False,False,
941989,Mandarin Grill + Bar,https://www.tripadvisor.com/Restaurant_Review-g294217-d941989-Reviews-Mandarin_Grill_Bar-Hong_Kong.html,4.8,1384,$$$$,+852 2825 4004,False,Closed today,"1/f, Mandarin Oriental Hong Kong 5 Connaught Road Central, Hong Kong 000000 China",,000000,China,CN,22.28197,114.15939,294217,Hong Kong,https://dynamic-media-cdn.tripadvisor.com/media/photo-o/04/56/25/d6/mandarin-grill-bar-at.jpg,True,False,
799846,Sister Wah,https://www.tripadvisor.com/Restaurant_Review-g294217-d799846-Reviews-Sister_Wah-Hong_Kong.html,4.2,327,$,+852 2807 0181,True,Open now,"13A Electric Road, Hong Kong 852 China",,852,China,CN,22.283047,114.19181,294217,Hong Kong,https://dynamic-media-cdn.tripadvisor.com/media/daodao/photo-o/16/91/7e/7b/photo0jpg.jpg,False,False,
2422144,Tim Ho Wan (Central),https://www.tripadvisor.com/Restaurant_Review-g294217-d2422144-Reviews-Tim_Ho_Wan_Central-Hong_Kong.html,3.9,1786,$,+852 2332 3078,True,Open now,"Shop 12A, Hong Kong Station Podium Level 1, IFC Mall , Central, Hong Kong China",,,China,CN,22.284927,114.158295,294217,Hong Kong,https://dynamic-media-cdn.tripadvisor.com/media/photo-o/0a/b7/76/94/caption.jpg,False,False,
2190309,Grand Hyatt Steakhouse (Grand Hyatt Hong Kong),https://www.tripadvisor.com/Restaurant_Review-g294217-d2190309-Reviews-Grand_Hyatt_Steakhouse_Grand_Hyatt_Hong_Kong-Hong_Kong.html,4.6,591,$$$$,+852 2584 7722,False,Closed now,"1 Harbour Road Mezzanine Level, Hong Kong China",,,China,CN,22.281357,114.17205,294217,Hong Kong,https://dynamic-media-cdn.tripadvisor.com/media/photo-o/02/d5/b2/31/grand-hyatt-steakhouse.jpg,False,False,
23164340,The Aubrey,https://www.tripadvisor.com/Restaurant_Review-g294217-d23164340-Reviews-The_Aubrey-Hong_Kong.html,4.8,405,$$$$,+852 2825 4001,True,Open now,"25/f Mandarin Oriental, Hong Kong 5 Connaught Road Central, Hong Kong China",,,China,CN,22.28186,114.15938,294217,Hong Kong,https://dynamic-media-cdn.tripadvisor.com/media/photo-o/1c/a8/93/58/the-aubrey.jpg,False,False,
1917369,Crystal Jade La Mian Xiao Long Bao (AP),https://www.tripadvisor.com/Restaurant_Review-g294217-d1917369-Reviews-Crystal_Jade_La_Mian_Xiao_Long_Bao_AP-Hong_Kong.html,3.9,485,$$ - $$$,+852 2261 0553,True,Open now,"Meeters & Greeters Hall, Arrivals, Level 5, Terminal 1, Hong Kong International Airport, Chek Lap Kok, Hong Kong China",,,China,CN,22.315351,113.93619,294217,Hong Kong,https://dynamic-media-cdn.tripadvisor.com/media/photo-o/16/44/f3/f2/restaurant-interior.jpg,False,False,
18893906,Paradise Dynasty (Citygate),https://www.tripadvisor.com/Restaurant_Review-g294217-d18893906-Reviews-Paradise_Dynasty_Citygate-Hong_Kong.html,4.7,100,$$ - $$$,+852 2777 0228,True,Open now,"20 Tat Tung Road, Tung Chung Town, New Territories Shop 326A, 3/F, Citygate, Hong Kong China",,,China,CN,22.289692,113.941,294217,Hong Kong,https://dynamic-media-cdn.tripadvisor.com/media/photo-o/2c/63/aa/5f/caption.jpg,False,False,
1321684,Manakamana Nepali Restaurant,https://www.tripadvisor.com/Restaurant_Review-g294217-d1321684-Reviews-Manakamana_Nepali_Restaurant-Hong_Kong.html,4.5,469,$,+852 2385 2070,True,Open now,"G/F, 107 Temple Street, Jordan, Hong Kong 000 China",,000,China,CN,22.308304,114.170395,294217,Hong Kong,https://dynamic-media-cdn.tripadvisor.com/media/photo-o/2c/9d/e8/8d/momo.jpg,False,False,
2161545,Tosca di Angelo,https://www.tripadvisor.com/Restaurant_Review-g294217-d2161545-Reviews-Tosca_di_Angelo-Hong_Kong.html,4.6,1515,$$$$,+852 2263 2270,False,Closed today,"1 Austin Road West Level 102, International Commerce Centre, Hong Kong China",,,China,CN,22.303223,114.16844,294217,Hong Kong,https://dynamic-media-cdn.tripadvisor.com/media/photo-o/1c/28/1d/c6/tosca-di-angelo-dining.jpg,True,False,
3749223,Yat Lok Restaurant,https://www.tripadvisor.com/Restaurant_Review-g294217-d3749223-Reviews-Yat_Lok_Restaurant-Hong_Kong.html,3.7,1094,$$ - $$$,+852 2524 3882,True,Open now,"G/F, 34-38 Stanley Street, Hong Kong China",,,China,CN,22.282639,114.15531,294217,Hong Kong,https://dynamic-media-cdn.tripadvisor.com/media/photo-o/0b/38/7f/4b/photo3jpg.jpg,False,False,
26499357,Milu Thai Restaurant,https://www.tripadvisor.com/Restaurant_Review-g294217-d26499357-Reviews-Milu_Thai_Restaurant-Hong_Kong.html,4.8,188,$$ - $$$,+852 9775 3397,True,Open now,"Flat 4, Astoria Building, 34 Ashley Road, Tsim Sha Tsui, Kowloon, Hong Kong China",,,China,CN,22.297632,114.17055,294217,Hong Kong,https://dynamic-media-cdn.tripadvisor.com/media/photo-o/2a/01/da/9a/caption.jpg,False,False,
27706925,Sukiyaki Nakagawa,https://www.tripadvisor.com/Restaurant_Review-g294217-d27706925-Reviews-Sukiyaki_Nakagawa-Hong_Kong.html,4.9,87,$$$$,+852 5394 3688,False,Closed now,"Shop B, 3/f, Cubus 1 Hoi Ping Road, Causeway Bay, Hong Kong China",,,China,CN,22.277576,114.18502,294217,Hong Kong,https://dynamic-media-cdn.tripadvisor.com/media/photo-o/2e/d1/93/96/wagyu-don-served-with.jpg,False,False,
25067752,I-O-N Wong Chuk Hang,https://www.tripadvisor.com/Restaurant_Review-g294217-d25067752-Reviews-I_O_N_Wong_Chuk_Hang-Hong_Kong.html,4.8,240,$$ - $$$,+852 3968 8833,True,Open now,"55 Wong Chuk Hang Road, Aberdeen P3/F, Nina Hotel Island South, Hong Kong China",,,China,CN,22.24979,114.16814,294217,Hong Kong,https://dynamic-media-cdn.tripadvisor.com/media/photo-o/29/ca/cf/9c/interior.jpg,False,False,
26459339,Nobu - Regent Hong Kong,https://www.tripadvisor.com/Restaurant_Review-g294217-d26459339-Reviews-Nobu_Regent_Hong_Kong-Hong_Kong.html,4.9,201,$$$$,+852 2313 2313,False,Closed now,"18 Salisbury Road, Kowloon Regent Hong Kong, Hong Kong China",,,China,CN,22.293285,114.173935,294217,Hong Kong,https://dynamic-media-cdn.tripadvisor.com/media/photo-o/2a/9c/fa/e1/nobu-hong-kong.jpg,False,False,
10463607,The Oyster House,https://www.tripadvisor.com/Restaurant_Review-g294217-d10463607-Reviews-The_Oyster_House-Hong_Kong.html,4.8,605,$$ - $$$,+852 2511 1212,True,Open now,"202 Queen's Road East 25/F, QRE Plaza, Wan Chai, Hong Kong China",,,China,CN,22.27505,114.1722,294217,Hong Kong,https://dynamic-media-cdn.tripadvisor.com/media/photo-o/24/7c/c0/0d/caption.jpg,False,False,
10769692,Ju Xing Home,https://www.tripadvisor.com/Restaurant_Review-g294217-d10769692-Reviews-Ju_Xing_Home-Hong_Kong.html,4.6,106,$$ - $$$,+852 2392 9283,True,,"G/F, 418 Portland Street, Prince Edward, Hong Kong China",,,China,CN,22.325483,114.16733,294217,Hong Kong,https://dynamic-media-cdn.tripadvisor.com/media/photo-o/2e/47/55/87/418.jpg,False,False,
788642,The Peak Lookout,https://www.tripadvisor.com/Restaurant_Review-g294217-d788642-Reviews-The_Peak_Lookout-Hong_Kong.html,3.7,863,$$ - $$$,+852 2849 1000,True,Open now,"121 Peak Road, The Peak, Hong Kong China",,,China,CN,22.271067,114.14938,294217,Hong Kong,https://dynamic-media-cdn.tripadvisor.com/media/photo-o/28/60/3b/ba/exterior.jpg,False,False,
25067742,I-O-N Kwun Tong,https://www.tripadvisor.com/Restaurant_Review-g294217-d25067742-Reviews-I_O_N_Kwun_Tong-Hong_Kong.html,4.9,158,$$ - $$$,+852 6508 0975,True,Open now,"38 Chong Yip Street, Kwun Tong 2/F, Nina Hotel Kowloon East, Hong Kong China",,,China,CN,22.314148,114.219055,294217,Hong Kong,https://dynamic-media-cdn.tripadvisor.com/media/photo-o/29/aa/d8/a4/our-semi-buffet-diner.jpg,False,False,
776832,Australia Dairy Company,https://www.tripadvisor.com/Restaurant_Review-g294217-d776832-Reviews-Australia_Dairy_Company-Hong_Kong.html,3.7,1823,$,+852 2730 1356,True,Open now,"G/F, 47-49 Parkes Street, Jordan, Hong Kong China",,,China,CN,22.304588,114.170685,294217,Hong Kong,https://dynamic-media-cdn.tripadvisor.com/media/photo-o/19/27/c2/76/photo0jpg.jpg,False,False,
1062729,Lung King Heen,https://www.tripadvisor.com/Restaurant_Review-g294217-d1062729-Reviews-Lung_King_Heen-Hong_Kong.html,4.3,1061,$$$$,+852 3196 8882,False,Closed now,"8 Finance Street, Central Podium 4, Four Seasons Hotel Hong Kong,, Hong Kong China",,,China,CN,22.286509,114.157104,294217,Hong Kong,https://dynamic-media-cdn.tripadvisor.com/media/photo-o/0e/81/5c/34/restaurant-interior.jpg,False,False,
27430427,Ruên Thai & Vietnamese,https://www.tripadvisor.com/Restaurant_Review-g294217-d27430427-Reviews-Ruen_Thai_Vietnamese-Hong_Kong.html,4.8,224,$$ - $$$,+852 2205 6018,True,Open now,"66 Mody Road Shop G38-G39, G/F Tsim Sha Tsui Centre, Hong Kong China",,,China,CN,32.529716,106.80287,294217,Hong Kong,https://dynamic-media-cdn.tripadvisor.com/media/photo-o/2d/55/32/93/food-menu.jpg,False,False,
17579883,Shahrazad Lebanese Dining Lounge & Bar,https://www.tripadvisor.com/Restaurant_Review-g294217-d17579883-Reviews-Shahrazad_Lebanese_Dining_Lounge_Bar-Hong_Kong.html,4.8,390,$$$$,+852 2330 0242,False,Closed now,"No.75-77 Wyndham Street,Central.Hong Kong 2/F Carfield Commercial Building, Hong Kong China",,,China,CN,22.281805,114.15468,294217,Hong Kong,https://dynamic-media-cdn.tripadvisor.com/media/photo-o/1b/49/ff/85/shahrazad-lounge.jpg,True,False,
3330314,Islamic Centre Canteen,https://www.tripadvisor.com/Restaurant_Review-g294217-d3330314-Reviews-Islamic_Centre_Canteen-Hong_Kong.html,4.3,287,$,+852 2834 8211,True,Open now,"40 Salvation Amy Street, Wan Chai 5/F, Masjid Ammar And Osman Ramju Sadick Islamic Centre,, Hong Kong China",,,China,CN,22.277363,114.17887,294217,Hong Kong,https://dynamic-media-cdn.tripadvisor.com/media/photo-o/10/cc/ba/6a/photo7jpg.jpg,False,False,
32980878,Ruen Thai & Vietnamese,https://www.tripadvisor.com/Restaurant_Review-g294217-d32980878-Reviews-Ruen_Thai_Vietnamese-Hong_Kong.html,4.9,77,$$ - $$$,,True,,"66 Mody Road Shop G38-G39 & G45-G48, Tsim Sha Tsui Centre, Tsim Sha Tsui, Hong Kong China",,,China,CN,22.29782,114.1774,294217,Hong Kong,https://dynamic-media-cdn.tripadvisor.com/media/photo-o/2f/bd/64/cd/caption.jpg,False,False,
15193438,Chullschick,https://www.tripadvisor.com/Restaurant_Review-g294217-d15193438-Reviews-Chullschick-Hong_Kong.html,4.9,220,$$ - $$$,+852 2668 3948,True,Open now,"45-53A Graham Street, Soho, Central Shop D, G/F, Hong Kong China",,,China,CN,22.282375,114.15301,294217,Hong Kong,https://dynamic-media-cdn.tripadvisor.com/media/photo-o/14/ea/eb/8c/getlstd-property-photo.jpg,False,False,
841139,Zuma Hong Kong,https://www.tripadvisor.com/Restaurant_Review-g294217-d841139-Reviews-Zuma_Hong_Kong-Hong_Kong.html,4.2,1126,$$ - $$$,+852 3657 6388,False,Closed now,"Level 5&6 Landmark Atrium 15 Queen's Road Central, Hong Kong 00000 China",,00000,China,CN,22.28047,114.15799,294217,Hong Kong,https://dynamic-media-cdn.tripadvisor.com/media/photo-o/17/d8/33/a1/sushi-counter.jpg,True,False,
4938945,Eye Bar,https://www.tripadvisor.com/Restaurant_Review-g294217-d4938945-Reviews-Eye_Bar-Hong_Kong.html,3.9,423,$$ - $$$,+852 2487 3988,True,Open now,"30/F, iSquare, 63 Nathan Road, Tsim Sha Tsui, Kowloon, Hong Kong China",,,China,CN,22.297125,114.17198,294217,Hong Kong,https://dynamic-media-cdn.tripadvisor.com/media/photo-o/05/4f/84/01/balcony.jpg,False,False,
15097418,Milu Thai Restaurant,https://www.tripadvisor.com/Restaurant_Review-g294217-d15097418-Reviews-Milu_Thai_Restaurant-Hong_Kong.html,4.7,250,$$ - $$$,+852 2885 0060,True,Open now,"No.3 Yiu Wa Street, Causeway Bay 2/F, Bartlock Centre,, Hong Kong 999077 China",,999077,China,CN,22.277687,114.18218,294217,Hong Kong,https://dynamic-media-cdn.tripadvisor.com/media/photo-o/26/c7/aa/b8/internal.jpg,False,False,
27798928,Nadagogo,https://www.tripadvisor.com/Restaurant_Review-g294217-d27798928-Reviews-Nadagogo-Hong_Kong.html,4.9,81,$$ - $$$,+852 5968 0586,False,Closed now,"Shop 4, G/f, 18 Ship Street, Wan Chai, Hong Kong China",,,China,CN,22.276072,114.17092,294217,Hong Kong,https://dynamic-media-cdn.tripadvisor.com/media/photo-o/2e/d1/96/a4/raw-skewer-assortment.jpg,False,False,
2184677,One Harbour Road,https://www.tripadvisor.com/Restaurant_Review-g294217-d2184677-Reviews-One_Harbour_Road-Hong_Kong.html,4.5,426,$$$$,+852 2854 7722,False,Closed now,"1 Harbour Rd, Wan Chai Grand Hyatt Hong Kong, 7-8th floor, Hong Kong China",,,China,CN,22.281378,114.17205,294217,Hong Kong,https://dynamic-media-cdn.tripadvisor.com/media/photo-o/2b/93/cc/ef/f-main-dining-room.jpg,False,False,
7942377,Oi Man Sang,https://www.tripadvisor.com/Restaurant_Review-g294217-d7942377-Reviews-Oi_Man_Sang-Hong_Kong.html,4.3,99,$,+852 2393 9315,True,Open now,"No.1 Shek Kip Mei Street, Sham Shui Po Shop B-C, G/F, Hong Kong China",,,China,CN,22.326488,114.1623,294217,Hong Kong,https://dynamic-media-cdn.tripadvisor.com/media/photo-o/1d/df/0b/74/caption.jpg,False,False,
939504,Amber,https://www.tripadvisor.com/Restaurant_Review-g294217-d939504-Reviews-Amber-Hong_Kong.html,4.6,1177,$$$$,+852 2132 0066,False,Closed now,"No.15 Queen's Road Central 7/F, The Landmark Mandarin Oriental, Hong Kong China",,,China,CN,22.281368,114.158264,294217,Hong Kong,https://dynamic-media-cdn.tripadvisor.com/media/photo-o/17/6a/32/22/amber-restaurant.jpg,True,False,
23294405,Carat Fine Indian & Mediterranean Cuisine,https://www.tripadvisor.com/Restaurant_Review-g294217-d23294405-Reviews-Carat_Fine_Indian_Mediterranean_Cuisine-Hong_Kong.html,4.8,203,$$ - $$$,+852 2391 3929,True,Open now,"6-8A Prat Avenue, Tsim Sha Tsui 4/F, Winfield Commercial Building, Hong Kong China",,,China,CN,22.298615,114.17426,294217,Hong Kong,https://dynamic-media-cdn.tripadvisor.com/media/photo-o/1d/85/d3/22/caption.jpg,False,False,
799966,Bubba Gump Shrimp Co.,https://www.tripadvisor.com/Restaurant_Review-g294217-d799966-Reviews-Bubba_Gump_Shrimp_Co-Hong_Kong.html,4.0,1478,$$ - $$$,+852 2849 2867,True,Open now,"Shop 304 & 305, Level 3, The Peak Tower, 128 Peak Road Shop 304-305, 3/F, The Peak Tower,, Hong Kong China",,,China,CN,22.271263,114.15018,294217,Hong Kong,https://dynamic-media-cdn.tripadvisor.com/media/photo-o/10/16/85/0f/shrimp-shack.jpg,False,False,
19782385,Yung's Bistro,https://www.tripadvisor.com/Restaurant_Review-g294217-d19782385-Reviews-Yung_s_Bistro-Hong_Kong.html,4.8,131,$$ - $$$,+852 2321 3800,True,Open now,"18 Salisbury Road, Tsim Sha Tsui Shop 704, 7/f, K11 Musea, Victoria Dockside, Hong Kong 00000 China",,00000,China,CN,22.294228,114.17416,294217,Hong Kong,https://dynamic-media-cdn.tripadvisor.com/media/photo-o/1f/68/f0/43/caption.jpg,False,False,
2017430,Peking Garden (Tsim Sha Tsui),https://www.tripadvisor.com/Restaurant_Review-g294217-d2017430-Reviews-Peking_Garden_Tsim_Sha_Tsui-Hong_Kong.html,3.9,734,$$ - $$$,+852 2735 8211,False,Closed now,"3/F, Star House, Tsimshatsui, Kowloon, Hong Kong China",,,China,CN,22.294695,114.169044,294217,Hong Kong,https://dynamic-media-cdn.tripadvisor.com/media/photo-o/18/dd/30/6a/peking-garden.jpg,False,False,
7810350,The Grand Buffet,https://www.tripadvisor.com/Restaurant_Review-g294217-d7810350-Reviews-The_Grand_Buffet-Hong_Kong.html,4.2,127,$$$$,+852 2506 0888,False,Closed now,"62/F, Hopewell Centre, No.183 Queen's Road East, Wan Chai, Hong Kong China",,,China,CN,22.274736,114.171616,294217,Hong Kong,https://dynamic-media-cdn.tripadvisor.com/media/photo-o/30/2d/b1/67/the-only-360-revolving.jpg,False,False,
17348103,Somm,https://www.tripadvisor.com/Restaurant_Review-g294217-d17348103-Reviews-Somm-Hong_Kong.html,4.8,182,$$$$,+852 2132 0033,False,Closed now,"15 Queen's Road Central 7/f, The Landmark Mandarin Oriental, Hong Kong China",,,China,CN,22.281109,114.15808,294217,Hong Kong,https://dynamic-media-cdn.tripadvisor.com/media/photo-o/17/6a/35/2c/somm.jpg,True,False,
10542775,Fleur de Sel,https://www.tripadvisor.com/Restaurant_Review-g294217-d10542775-Reviews-Fleur_de_Sel-Hong_Kong.html,4.8,177,$$ - $$$,+852 2805 6678,False,Closed today,"Shop 2J, Po Foo Building, Foo Ming Street, Causeway Bay, Hong Kong China",,,China,CN,22.278837,114.18345,294217,Hong Kong,https://dynamic-media-cdn.tripadvisor.com/media/photo-o/1c/cf/78/3f/fleur-de-sel.jpg,False,False,
20965183,Chaat,https://www.tripadvisor.com/Restaurant_Review-g294217-d20965183-Reviews-Chaat-Hong_Kong.html,4.7,195,$$$$,+852 3891 8732,False,Closed today,"18 Salisbury Road, Tsim Sha Tsui 5/F, Rosewood Hong Kong, Hong Kong China",,,China,CN,22.295162,114.17585,294217,Hong Kong,https://dynamic-media-cdn.tripadvisor.com/media/photo-o/1b/82/d9/de/chaat-interior.jpg,False,False,
784980,Joy Hing Food Shop,https://www.tripadvisor.com/Restaurant_Review-g294217-d784980-Reviews-Joy_Hing_Food_Shop-Hong_Kong.html,4.0,462,$,+852 2519 6639,True,Open now,"265-267 Hennessy Road, Wan Chai, Hong Kong China",,,China,CN,22.278038,114.1768,294217,Hong Kong,https://dynamic-media-cdn.tripadvisor.com/media/photo-o/21/71/bf/b1/store-front.jpg,False,False,
2433070,Tango Argentinian Steakhouse (LKF),https://www.tripadvisor.com/Restaurant_Review-g294217-d2433070-Reviews-Tango_Argentinian_Steakhouse_LKF-Hong_Kong.html,4.5,792,$$ - $$$,+852 2525 5808,False,Closed now,"15-16 Lan Kwai Fong 2nd Floor, Grand Progress Building, Hong Kong China",,,China,CN,22.281666,114.15454,294217,Hong Kong,https://dynamic-media-cdn.tripadvisor.com/media/photo-o/2b/11/2b/ee/tango-new-home-in-lkf.jpg,False,False,
6420711,Little Bao,https://www.tripadvisor.com/Restaurant_Review-g294217-d6420711-Reviews-Little_Bao-Hong_Kong.html,4.5,542,$$ - $$$,+852 2818 1280,False,Closed today,"1-3 Shin Hing Street, Central G/f, Hong Kong China",,,China,CN,22.284094,114.15222,294217,Hong Kong,https://dynamic-media-cdn.tripadvisor.com/media/photo-o/26/2c/81/9d/szechuan-fried-chicken.jpg,False,False,
10205169,Ovo Cafe Wan Chai,https://www.tripadvisor.com/Restaurant_Review-g294217-d10205169-Reviews-Ovo_Cafe_Wan_Chai-Hong_Kong.html,4.6,148,$$ - $$$,+852 2527 6011,True,Open now,"G/F 1 Wanchai Road , Wan Chai, Hong Kong China",,,China,CN,22.274513,114.17428,294217,Hong Kong,https://dynamic-media-cdn.tripadvisor.com/media/photo-o/12/88/de/d6/ovocafe.jpg,False,False,
14058027,ÔDELICE (Tsim Sha Tsui),https://www.tripadvisor.com/Restaurant_Review-g294217-d14058027-Reviews-ODELICE_Tsim_Sha_Tsui-Hong_Kong.html,4.7,333,$$ - $$$,+852 2520 2136,True,Open now,"100 Nathan Road Shop L407, 4/F, The ONE, Tsim Sha Tsui, Hong Kong China",,,China,CN,22.299944,114.17311,294217,Hong Kong,https://dynamic-media-cdn.tripadvisor.com/media/photo-o/2a/f9/ad/ff/facade.jpg,False,False,
8702546,The Optimist,https://www.tripadvisor.com/Restaurant_Review-g294217-d8702546-Reviews-The_Optimist-Hong_Kong.html,4.3,492,$$ - $$$,+852 2433 3324,True,Open now,"G-2/F, 239 Hennessy Road, Wan Chai, Hong Kong China",,,China,CN,22.277761,114.17593,294217,Hong Kong,https://dynamic-media-cdn.tripadvisor.com/media/photo-o/24/bb/7a/8b/caption.jpg,True,False,
23113586,No Money So Lonely,https://www.tripadvisor.com/Restaurant_Review-g294217-d23113586-Reviews-No_Money_So_Lonely-Hong_Kong.html,4.6,240,$$ - $$$,+852 2338 8510,True,,"700 Nathan Road, Mong Kok Shop 406-408, 4/F, T.O.P This is Our Place, Hong Kong China",,,China,CN,22.3206,114.16948,294217,Hong Kong,https://dynamic-media-cdn.tripadvisor.com/media/photo-o/1d/27/fd/dd/caption.jpg,False,False,
1952785,Delaney's Kowloon Irish Bar,https://www.tripadvisor.com/Restaurant_Review-g294217-d1952785-Reviews-Delaney_s_Kowloon_Irish_Bar-Hong_Kong.html,4.2,620,$$ - $$$,+852 2301 3980,True,Open now,"No.77 Peking Road Tsim Sha Tsui, Hong Kong China",,,China,CN,22.296587,114.171776,294217,Hong Kong,https://dynamic-media-cdn.tripadvisor.com/media/photo-o/2a/30/00/c2/caption.jpg,False,False,
788798,The Verandah Restaurant,https://www.tripadvisor.com/Restaurant_Review-g294217-d788798-Reviews-The_Verandah_Restaurant-Hong_Kong.html,4.5,479,$$$$,+852 2696 6766,False,Closed now,"1/F, The Peninsula Hong Kong, 19-21 Nathan Road, Tsim Sha Tsui, Hong Kong China",,,China,CN,22.294756,114.17187,294217,Hong Kong,https://dynamic-media-cdn.tripadvisor.com/media/photo-o/04/35/04/9d/the-verandah.jpg,False,False,
10786930,Samsen,https://www.tripadvisor.com/Restaurant_Review-g294217-d10786930-Reviews-Samsen-Hong_Kong.html,4.3,218,$$ - $$$,+852 2234 0001,False,Closed now,"G/F, 68 Stone Nullah Lane, Wan Chai, Hong Kong China",,,China,CN,22.2741,114.17411,294217,Hong Kong,https://dynamic-media-cdn.tripadvisor.com/media/photo-o/14/f7/a0/e3/wagyu-beef-stir-fried.jpg,False,False,
4361851,Motorino Soho,https://www.tripadvisor.com/Restaurant_Review-g294217-d4361851-Reviews-Motorino_Soho-Hong_Kong.html,4.3,596,$$ - $$$,+852 2801 6881,True,Open now,"G/F, 14 Shelley Street, Central 15 Ship Street, Wan Chai, Hong Kong China",,,China,CN,22.281677,114.15302,294217,Hong Kong,https://dynamic-media-cdn.tripadvisor.com/media/photo-o/13/09/0e/bf/our-pies-are-baked-in.jpg,True,False,
14003559,Popinjays,https://www.tripadvisor.com/Restaurant_Review-g294217-d14003559-Reviews-Popinjays-Hong_Kong.html,4.5,519,$$$$,+852 3141 8888,True,Open now,"26/F, 22 Cotton Tree Drive, Central The Murray, Hong Kong, Hong Kong China",,,China,CN,22.278091,114.16006,294217,Hong Kong,https://dynamic-media-cdn.tripadvisor.com/media/photo-o/14/5a/0a/de/the-lifestyle-destination.jpg,False,False,
13130926,The Grill Room,https://www.tripadvisor.com/Restaurant_Review-g294217-d13130926-Reviews-The_Grill_Room-Hong_Kong.html,4.6,349,$$ - $$$,+852 2897 6288,False,Closed now,"2/F, 6-6A Humphrey's Avenue, Tsim Sha Tsui The Humphreys, Hong Kong China",,,China,CN,22.29834,114.17323,294217,Hong Kong,https://dynamic-media-cdn.tripadvisor.com/media/photo-o/11/39/23/4d/getlstd-property-photo.jpg,True,False,
799850,Islam Food,https://www.tripadvisor.com/Restaurant_Review-g294217-d799850-Reviews-Islam_Food-Hong_Kong.html,4.1,190,$,+852 2382 2822,True,Open now,"1 Lung Kong Road, Kowloon City, Hong Kong China",,,China,CN,22.328224,114.190346,294217,Hong Kong,https://dynamic-media-cdn.tripadvisor.com/media/photo-o/21/81/75/ee/islam-food-in-kowloon.jpg,False,False,
808255,Grissini (Grand Hyatt Hong Kong),https://www.tripadvisor.com/Restaurant_Review-g294217-d808255-Reviews-Grissini_Grand_Hyatt_Hong_Kong-Hong_Kong.html,4.5,594,$$$$,+852 2584 7722,False,Closed now,"2/F, Grand Hyatt Hong Kong 1 Harbour Road, Wan Chai, Hong Kong China",,,China,CN,22.28121,114.17235,294217,Hong Kong,https://dynamic-media-cdn.tripadvisor.com/media/photo-o/19/9f/a9/fb/grissini-restaurant-interior.jpg,False,False,
24180826,The Pearl,https://www.tripadvisor.com/Restaurant_Review-g294217-d24180826-Reviews-The_Pearl-Hong_Kong.html,4.7,186,$$ - $$$,+852 5328 1503,True,,"4/F, Attitude on Granville, 20-22 Granville Road, Tsim Sha Tsui, Hong Kong, Hong Kong 999077 China",,999077,China,CN,22.299759,114.173775,294217,Hong Kong,https://dynamic-media-cdn.tripadvisor.com/media/photo-o/26/56/ef/4f/caption.jpg,False,False,
1188846,The London Restaurant,https://www.tripadvisor.com/Restaurant_Review-g294217-d1188846-Reviews-The_London_Restaurant-Hong_Kong.html,3.8,442,$$ - $$$,+852 2771 8018,False,Closed now,"612 Nathan Road, Hong Kong China",,,China,CN,22.317377,114.169716,294217,Hong Kong,https://dynamic-media-cdn.tripadvisor.com/media/photo-o/14/d0/65/07/img-20180925-100731-largejpg.jpg,False,False,
2325822,Le 188° Restaurant & Lounge,https://www.tripadvisor.com/Restaurant_Review-g294217-d2325822-Reviews-Le_188_Restaurant_Lounge-Hong_Kong.html,4.4,431,$$$$,+852 2121 2693,True,Open now,"41/F, Harbour Grand Hong Kong, MTR Fortress Hill Station, Exit A, 23 Oil Street, North Point, Hong Kong China",,,China,CN,22.288996,114.191734,294217,Hong Kong,https://dynamic-media-cdn.tripadvisor.com/media/photo-o/0f/27/2a/0d/le-188o-restaurant-lounge.jpg,False,False,
7693632,China Club,https://www.tripadvisor.com/Restaurant_Review-g294217-d7693632-Reviews-China_Club-Hong_Kong.html,4.4,340,$$$$,+852 2521 8888,True,Open now,"13-14/F, Old Bank of China Building, Bank Street Central, Hong Kong China",,,China,CN,22.28017,114.160805,294217,Hong Kong,https://dynamic-media-cdn.tripadvisor.com/media/photo-o/0c/20/02/f7/photo0jpg.jpg,False,False,
14920860,b+bc cafe - Tseung Kwan O,https://www.tripadvisor.com/Restaurant_Review-g294217-d14920860-Reviews-B_bc_cafe_Tseung_Kwan_O-Hong_Kong.html,4.7,266,$,+852 3106 2238,True,,"No.1, Tong Tak Street Shop 133-135, 1/F, Tseung Kwan O Plaza, Hong Kong China",,,China,CN,22.308746,114.26185,294217,Hong Kong,https://dynamic-media-cdn.tripadvisor.com/media/photo-o/1a/bf/dc/81/caption.jpg,False,False,
2481861,Chi Lin Vegetarian,https://www.tripadvisor.com/Restaurant_Review-g294217-d2481861-Reviews-Chi_Lin_Vegetarian-Hong_Kong.html,4.1,264,$$ - $$$,+852 3658 9388,True,Open now,"Long Men Lou, Nan Lian Garden, Hong Kong China",,,China,CN,22.339031,114.20574,294217,Hong Kong,https://dynamic-media-cdn.tripadvisor.com/media/photo-o/1b/41/31/f6/photo0jpg.jpg,False,False,
784570,Yue Kee Restaurant,https://www.tripadvisor.com/Restaurant_Review-g294217-d784570-Reviews-Yue_Kee_Restaurant-Hong_Kong.html,4.1,156,$$ - $$$,+852 2491 0105,True,Open now,"9 Sham Hong Road, Sham Tseng, Hong Kong China",,,China,CN,22.368052,114.05986,294217,Hong Kong,https://dynamic-media-cdn.tripadvisor.com/media/photo-o/06/b2/3e/53/2.jpg,False,False,
844402,Morton's - The Steakhouse,https://www.tripadvisor.com/Restaurant_Review-g294217-d844402-Reviews-Morton_s_The_Steakhouse-Hong_Kong.html,4.3,881,$$$$,+852 2732 2343,True,Opens in 53 min,"4th Floor, The Sheraton Hotel & Towers, No.20 Nathan Road, Tsim Sha Tsui 20 Nathan Road, Kowloon, Hong Kong China",,,China,CN,22.294626,114.17292,294217,Hong Kong,https://dynamic-media-cdn.tripadvisor.com/media/photo-o/12/aa/46/05/morton-s-the-steakhouse.jpg,True,False,
23137802,b+bc Cafe,https://www.tripadvisor.com/Restaurant_Review-g294217-d23137802-Reviews-B_bc_Cafe-Hong_Kong.html,4.8,164,$,+852 2123 9497,True,Open now,"249-251 Castle Peak Road, Yuen Long Shop3 & 5, G/F, Yuen Long Plaza ), Hong Kong China",,,China,CN,22.444876,114.023994,294217,Hong Kong,https://dynamic-media-cdn.tripadvisor.com/media/photo-o/1c/9e/63/bb/caption.jpg,False,False,
4373206,Duddell's,https://www.tripadvisor.com/Restaurant_Review-g294217-d4373206-Reviews-Duddell_s-Hong_Kong.html,3.9,444,$$$$,+852 2525 9191,True,Open now,"Levels 3 & 4, 1 Duddell Street, Central, Hong Kong China",,,China,CN,22.28012,114.157486,294217,Hong Kong,https://dynamic-media-cdn.tripadvisor.com/media/photo-o/04/b0/8a/cd/duddell-s.jpg,True,False,
10661223,ALTO Bar & Grill,https://www.tripadvisor.com/Restaurant_Review-g294217-d10661223-Reviews-ALTO_Bar_Grill-Hong_Kong.html,4.4,357,$$ - $$$,+852 2603 7181,True,Open now,"18 Tang Lung Street 31/F, V Point, Hong Kong China",,,China,CN,22.279228,114.18162,294217,Hong Kong,https://dynamic-media-cdn.tripadvisor.com/media/photo-o/0c/3c/b0/1d/getlstd-property-photo.jpg,False,False,
15855321,Veda Café & Bar,https://www.tripadvisor.com/Restaurant_Review-g294217-d15855321-Reviews-Veda_Cafe_Bar-Hong_Kong.html,4.8,461,$$ - $$$,+852 3755 3067,False,Closed now,"2 Arbuthnot Road, Central Ovolo Hotel, Central, Hong Kong 00000 China",,00000,China,CN,22.280523,114.15464,294217,Hong Kong,https://dynamic-media-cdn.tripadvisor.com/media/photo-o/2e/4d/2e/30/veda-vegetarian-restaurant.jpg,False,False,
2166297,The Lounge & Bar,https://www.tripadvisor.com/Restaurant_Review-g294217-d2166297-Reviews-The_Lounge_Bar-Hong_Kong.html,4.6,1450,$$$$,+852 2263 2270,True,Open now,"1 Austin Road West, Kowloon, International Commerce Centre 102/F, The Ritz-Carlton Hong Kong, Hong Kong China",,,China,CN,22.303352,114.16019,294217,Hong Kong,https://dynamic-media-cdn.tripadvisor.com/media/photo-o/09/50/40/5a/the-lounge-bar-the-ritz.jpg,True,False,
32823639,Sepoy Mess,https://www.tripadvisor.com/Restaurant_Review-g294217-d32823639-Reviews-Sepoy_Mess-Hong_Kong.html,4.9,163,$$ - $$$,+852 6603 7736,True,Open now,"Shop R008, 3/f, Elements, Civic Square, Elements, Civic Square, 1 Austin Rd W, Tsim Sha Tsui, Hong Kong 0000 China",,0000,China,CN,22.304195,114.16156,294217,Hong Kong,https://dynamic-media-cdn.tripadvisor.com/media/photo-o/2f/e8/57/c0/sepoy-mess.jpg,True,False,
13283405,Yardbird,https://www.tripadvisor.com/Restaurant_Review-g294217-d13283405-Reviews-Yardbird-Hong_Kong.html,4.0,126,$$ - $$$,+852 2547 9273,False,Closed today,"G/F, 154-158 Wing Lok Street, Sheung Wan, Hong Kong China",,,China,CN,22.287214,114.14924,294217,Hong Kong,https://dynamic-media-cdn.tripadvisor.com/media/photo-o/12/8e/c6/72/photo0jpg.jpg,False,False,
10539219,BRICK LANE Gallery,https://www.tripadvisor.com/Restaurant_Review-g294217-d10539219-Reviews-BRICK_LANE_Gallery-Hong_Kong.html,4.3,258,$$ - $$$,+852 2721 0628,True,Open now,"G/F, No.17-23 Minden Avenue, Tsim Sha Tsui, Hong Kong China",,,China,CN,22.296822,114.174614,294217,Hong Kong,https://dynamic-media-cdn.tripadvisor.com/media/photo-o/0e/a6/cf/69/brick-lane-gallery-exterior.jpg,False,False,
17477529,Wingman,https://www.tripadvisor.com/Restaurant_Review-g294217-d17477529-Reviews-Wingman-Hong_Kong.html,4.8,190,$$ - $$$,+852 9607 5500,True,Open now,"No.37-43 Cochrane Street, Central 6/F, Cheung Hing Commercial Building, Hong Kong China",,,China,CN,22.28276,114.15395,294217,Hong Kong,https://dynamic-media-cdn.tripadvisor.com/media/photo-o/28/24/ed/f5/a-range-of-our-wings.jpg,False,False,
8316856,Burger Joys,https://www.tripadvisor.com/Restaurant_Review-g294217-d8316856-Reviews-Burger_Joys-Hong_Kong.html,4.6,388,$$ - $$$,+852 2787 1288,True,Open now,"De Fenwick, No.42-50 Lockhart, Wanchai, Hong Kong China",,,China,CN,22.278257,114.17051,294217,Hong Kong,https://dynamic-media-cdn.tripadvisor.com/media/photo-o/1c/b2/70/b5/img-20210302-202423-387.jpg,False,False,
